{"features": [{"geometry": {"coordinates": [113.914275, 22.255105], "type": "Point"}, "properties": {"name": " \u6602\u576a\u71df\u5730Ngong Ping Camp Site"}, "type": "Feature"}, {"geometry": {"coordinates": [113.867214, 22.23066], "type": "Point"}, "properties": {"name": " \u842c\u4e08\u5e03\u71df\u5730 Man Cheung Po Campsite"}, "type": "Feature"}, {"geometry": {"coordinates": [113.844237, 22.208862], "type": "Point"}, "properties": {"name": " Camp site 1"}, "type": "Feature"}, {"geometry": {"coordinates": [113.852962, 22.238682], "type": "Point"}, "properties": {"name": " \u7259\u9df9\u89d2\u71df\u5730 Nga Ying Kok Campsite"}, "type": "Feature"}, {"geometry": {"coordinates": [113.903106, 22.213873], "type": "Point"}, "properties": {"name": " \u77f3\u6b16\u6d32\u71df\u5730 Shek Lam Chau Campsite"}, "type": "Feature"}, {"geometry": {"coordinates": [113.877839, 22.214151], "type": "Point"}, "properties": {"name": " \u5927\u6d6a\u7063\u71df\u5730 Tai Long Wan Camp Site"}, "type": "Feature"}, {"geometry": {"coordinates": [113.863731, 22.20457], "type": "Point"}, "properties": {"name": " \u72d7\u5dba\u6d8c\u71df\u5730 Kau Ling Chung Camp Site"}, "type": "Feature"}, {"geometry": {"coordinates": [113.889726, 22.228931], "type": "Point"}, "properties": {"name": " \u77f3\u58c1\u71df\u5730 Shek Pik Campsite"}, "type": "Feature"}, {"geometry": {"coordinates": [113.864429, 22.204596], "type": "Point"}, "properties": {"name": " Camp site 2"}, "type": "Feature"}, {"geometry": {"coordinates": [113.958436, 22.257829], "type": "Point"}, "properties": {"name": " \u721b\u982d\u71df Lantau Mountain Camp"}, "type": "Feature"}, {"geometry": {"coordinates": [113.915001, 22.211381], "type": "Point"}, "properties": {"name": " \u7c6e\u7b95\u7063\u71df\u5730 Lo Kei Wan Campsite"}, "type": "Feature"}, {"geometry": {"coordinates": [113.98625, 22.254126], "type": "Point"}, "properties": {"name": " \u5357\u5c71\u71df\u5730 Nam Shan Campsite"}, "type": "Feature"}, {"geometry": {"coordinates": [113.977644, 22.239606], "type": "Point"}, "properties": {"name": " \u8c9d\u6fb3\u71df\u5730 Pui O Campsite"}, "type": "Feature"}, {"geometry": {"coordinates": [113.988228, 22.237571], "type": "Point"}, "properties": {"name": " \u5341\u5871\u71df\u5730 Shap Long Campsite"}, "type": "Feature"}, {"geometry": {"coordinates": [113.993864, 22.251973], "type": "Point"}, "properties": {"name": " \u767d\u5bcc\u7530\u71df\u5730 Pak Fu Tin Campsite"}, "type": "Feature"}, {"geometry": {"coordinates": [113.941135, 22.23057], "type": "Point"}, "properties": {"name": " Drinking Water 1"}, "type": "Feature"}, {"geometry": {"coordinates": [113.954723, 22.234466], "type": "Point"}, "properties": {"name": " Drinking Water 2"}, "type": "Feature"}, {"geometry": {"coordinates": [113.864477, 22.205232], "type": "Point"}, "properties": {"name": " Drinking Water 3"}, "type": "Feature"}], "type": "FeatureCollection"}
