{"features": [{"geometry": {"coordinates": [114.3269, 22.38222], "type": "Point"}, "properties": {"name": " \u66dd\u7f5f\u7063\u71df\u5730 Po Kwu Wan Camp Site"}, "type": "Feature"}, {"geometry": {"coordinates": [114.332529, 22.377594], "type": "Point"}, "properties": {"name": " \u5143\u4e94\u58b3\u71df\u5730 Yuen Ng Fan Campsite"}, "type": "Feature"}, {"geometry": {"coordinates": [114.36479, 22.35877], "type": "Point"}, "properties": {"name": " \u767d\u81d8\u71df\u5730 Pak Lap Camp Site"}, "type": "Feature"}, {"geometry": {"coordinates": [114.37528, 22.37333], "type": "Point"}, "properties": {"name": " \u6d6a\u8304\u7063\u71df\u5730 Long Ke Wan Camps Site"}, "type": "Feature"}, {"geometry": {"coordinates": [114.36928, 22.39963], "type": "Point"}, "properties": {"name": " \u897f\u7063\u71df\u5730 Sai Wan Camp Site"}, "type": "Feature"}, {"geometry": {"coordinates": [114.374826, 22.410056], "type": "Point"}, "properties": {"name": " \u9e79\u7530\u7063\u71df\u5730 Ham Tin Wan Camp Site"}, "type": "Feature"}, {"geometry": {"coordinates": [114.33607, 22.42329], "type": "Point"}, "properties": {"name": " \u5317\u6f6d\u51f9\u71df\u5730 Pak Tam Au Camp Site"}, "type": "Feature"}, {"geometry": {"coordinates": [114.30898, 22.42816], "type": "Point"}, "properties": {"name": " \u5d82\u4e0a\u71df\u5730 Chenung Sheung Campsite"}, "type": "Feature"}, {"geometry": {"coordinates": [114.27528, 22.40278], "type": "Point"}, "properties": {"name": " \u6c34\u6d6a\u7aa9\u71df\u5730 Shui Long Wo Camp Site"}, "type": "Feature"}, {"geometry": {"coordinates": [114.250989, 22.392425], "type": "Point"}, "properties": {"name": " \u6602\u5e73\u71df\u5730 Ngong Ping Camp Site"}, "type": "Feature"}, {"geometry": {"coordinates": [114.157797, 22.411278], "type": "Point"}, "properties": {"name": " \u925b\u7926\u5773\u71df\u5730 Lead Mine Pass Camp Site"}, "type": "Feature"}, {"geometry": {"coordinates": [114.105205, 22.405097], "type": "Point"}, "properties": {"name": " \u6276\u8f2a\u516c\u5712\u71df\u5730 Rotary Park Camp Site"}, "type": "Feature"}, {"geometry": {"coordinates": [114.103872, 22.406934], "type": "Point"}, "properties": {"name": " \u8343\u9326\u71df\u5730 Twisk Camp Site"}, "type": "Feature"}, {"geometry": {"coordinates": [114.066018, 22.390104], "type": "Point"}, "properties": {"name": " \u7530\u592b\u4ed4\u71df\u5730 Tin Fu Tsai Camp Site"}, "type": "Feature"}, {"geometry": {"coordinates": [114.15259, 22.34883], "type": "Point"}, "properties": {"name": " Water Filling"}, "type": "Feature"}, {"geometry": {"coordinates": [114.33247, 22.42171], "type": "Point"}, "properties": {"name": " Water Station"}, "type": "Feature"}], "type": "FeatureCollection"}
